{"Table":[{"WarehouseId":"70530010","WarehouseName":"Отделение № 117, г. Воложин, ул. Советская 95","Longitude":"26.513","Latitude":"54.0949","Address1Id":"887111","Info1":"Режим работы: 10:00-19:00 Обед: 14:00-15:00 Выходные: вс,пн","Address7Id":"79","Address7Name":"МИНСКАЯ ОБЛАСТЬ","isNew":"1","Note":""},{"WarehouseId":"10130010","WarehouseName":"Отделение №17 г. Брест, ул. Комсомольская, 8-1 (м-н \"Евроопт\")","Longitude":"23.685744","Latitude":"52.098008","Address1Id":"2767875","Info1":"Режим работы: 9:00-21:00, обед 14:00-15:00, без выходных.","Address7Id":"71","Address7Name":"Брест","isNew":"0","Note":""},{"WarehouseId":"10130020","WarehouseName":"Отделение №34 г. Брест, ул. Гвардейская, 5 (м-н \"Евроопт\")","Longitude":"23.7384","Latitude":"52.0554","Address1Id":"887132","Info1":"Режим работы: 9:00-21:00, обед 14:00-15:00, без выходных.","Address7Id":"71","Address7Name":"Брест","isNew":"0","Note":""},{"WarehouseId":"10130030","WarehouseName":"Отделение №65, г. Брест, Варшавское шоссе 11 (м-н «Евроопт»)","Longitude":"23.7179","Latitude":"52.0754","Address1Id":"337354","Info1":"Режим работы: 9.00-21.00, без обеда, без выходных.","Address7Id":"71","Address7Name":"Брест","isNew":"0","Note":""},{"WarehouseId":"10130060","WarehouseName":"Отделение №128, г. Брест, ул. Радужная, 150","Longitude":"23.7018","Latitude":"52.1239","Address1Id":"886102","Info1":"Режим работы: 9:00-21:00, обед 14:00-15:00, без выходных.","Address7Id":"71","Address7Name":"Брест","isNew":"0","Note":""},{"WarehouseId":"10130050","WarehouseName":"Отделение №126 г. Брест, ул. 17 сентября, 49","Longitude":"23.6938","Latitude":"52.0842","Address1Id":"3289039","Info1":"Режим работы: 9:00-21:00, обед 14:00-15:00, без выходных.","Address7Id":"71","Address7Name":"Брест","isNew":"0","Note":""},{"WarehouseId":"10130070","WarehouseName":"Отделение № 136, г. Брест, ул. Орловская, 50","Longitude":"23.7808","Latitude":"52.1092","Address1Id":"886322","Info1":"Режим работы: 9.00-21.00, без обеда, без выходных.","Address7Id":"71","Address7Name":"Брест","isNew":"0","Note":""},{"WarehouseId":"10130080","WarehouseName":"Отделение №152, г. Брест, ул. Московская 342","Longitude":"23.7696","Latitude":"52.1017","Address1Id":"2784672","Info1":"Режим работы: с 9:00 до 21:00 без обеда ежедневно","Address7Id":"71","Address7Name":"Брест","isNew":"0","Note":""},{"WarehouseId":"10130090","WarehouseName":"Отделение №170 г. Брест ул. ГОБК 17-1","Longitude":"23.664","Latitude":"52.0923","Address1Id":"3303829","Info1":"График работы: с 9:00 до 21:00 обед с 14:00 до 15:00 ежедневно","Address7Id":"71","Address7Name":"Брест","isNew":"1","Note":""},{"WarehouseId":"10230010","WarehouseName":"Отделение №15 г. Барановичи, ул. Комсомольская, 28","Longitude":"26.003047","Latitude":"53.128294","Address1Id":"1261176","Info1":"Режим работы: 9:00-21:00, обед 14:00-15:00, без выходных.","Address7Id":"70","Address7Name":"БРЕСТСКАЯ ОБЛАСТЬ","isNew":"0","Note":""},{"WarehouseId":"11130010","WarehouseName":"Отделение №19 г. Лунинец, ул. Блока, 2 (м-н \"Евроопт\")","Longitude":"26.797949","Latitude":"52.256386","Address1Id":"2398240","Info1":"Режим работы: 9:00-21:00, обед 14:00-15:00, без выходных.","Address7Id":"70","Address7Name":"БРЕСТСКАЯ ОБЛАСТЬ","isNew":"0","Note":""},{"WarehouseId":"11430010","WarehouseName":"Отделение №28 г. Пинск, ул. Партизанская, 42","Longitude":"26.113136","Latitude":"52.124579","Address1Id":"2428517","Info1":"Режим работы: 9:00-21:00, обед 14:00-15:00, без выходных.","Address7Id":"70","Address7Name":"БРЕСТСКАЯ ОБЛАСТЬ","isNew":"0","Note":""},{"WarehouseId":"11030010","WarehouseName":"Отделение №42 г. Кобрин, Дружбы 43 (м-н \"Евроопт\")","Longitude":"24.3553","Latitude":"52.1932","Address1Id":"887129","Info1":"Режим работы: 9.00-21.00, обед 13:00-14:00, без выходных.","Address7Id":"70","Address7Name":"БРЕСТСКАЯ ОБЛАСТЬ","isNew":"0","Note":""},{"WarehouseId":"10330010","WarehouseName":"Отделение №72 г Береза, ул.Юбилейная, 22  (м-н «Евроопт»)","Longitude":"24.9838","Latitude":"52.5271","Address1Id":"887130","Info1":"Режим работы: 10:00-19:00 Обед: 14:00-15:00 Выходные: вс,пн","Address7Id":"70","Address7Name":"БРЕСТСКАЯ ОБЛАСТЬ","isNew":"0","Note":""},{"WarehouseId":"10830010","WarehouseName":"Отделение №80 г.Ивацевичи, ул.Советская 1А","Longitude":"25.3444","Latitude":"52.7114","Address1Id":"3167714","Info1":"Режим работы: с 10:00 до 19:00 обед с 14:00 до 15:00 вых: вс, пн","Address7Id":"70","Address7Name":"БРЕСТСКАЯ ОБЛАСТЬ","isNew":"0","Note":""},{"WarehouseId":"10230020","WarehouseName":"Отделение №93 г. Барановичи ул Текстильная 14а ( м-н «Евроопт»)","Longitude":"26.0367","Latitude":"53.1443","Address1Id":"2657802","Info1":"Режим работы: 9:00-21:00, обед 14:00-15:00, без выходных.","Address7Id":"70","Address7Name":"БРЕСТСКАЯ ОБЛАСТЬ","isNew":"0","Note":""},{"WarehouseId":"11430020","WarehouseName":"Отделение №149, г. Пинск, ул. Железнодорожная, 56","Longitude":"26.0907","Latitude":"52.1209","Address1Id":"2440181","Info1":"График работы:  с 9:00 до 21:00 без обеда ежедневно","Address7Id":"70","Address7Name":"БРЕСТСКАЯ ОБЛАСТЬ","isNew":"1","Note":""},{"WarehouseId":"10230030","WarehouseName":"Отделение №168 г. Барановичи ул. Коммунистическая 5","Longitude":"26.0255","Latitude":"53.1177","Address1Id":"335625","Info1":"График работы: 09:00-21:00","Address7Id":"70","Address7Name":"БРЕСТСКАЯ ОБЛАСТЬ","isNew":"1","Note":""},{"WarehouseId":"11430030","WarehouseName":"Отделение №186 г. Пинск, ул. Брестская, 72а","Longitude":"26.0814","Latitude":"52.1127","Address1Id":"3100121","Info1":"График работы:  с 9:00 до 21:00 обед с 14:00 до 15:00 ежедневно","Address7Id":"70","Address7Name":"БРЕСТСКАЯ ОБЛАСТЬ","isNew":"1","Note":""},{"WarehouseId":"20130010","WarehouseName":"Отделение №11 г. Витебск, пр-т. Строителей, 15 (м-н \"Евроопт\")","Longitude":"30.223099","Latitude":"55.169961","Address1Id":"137914","Info1":"Режим работы: 9.00-21.00, без обеда, без выходных.","Address7Id":"73","Address7Name":"Витебск","isNew":"0","Note":""},{"WarehouseId":"20130030","WarehouseName":"Отделение №64 г.Витебск, пр-т Московский, 130 (м-н «Евроопт»)","Longitude":"30.266","Latitude":"55.175","Address1Id":"2576262","Info1":"Режим работы: 9:00-21:00, обед 14:00-15:00, без выходных.","Address7Id":"73","Address7Name":"Витебск","isNew":"0","Note":""},{"WarehouseId":"20130040","WarehouseName":"Отделение №78 г.Витебск, ул. Правды, 64а (м-н Доброном)","Longitude":"30.2299","Latitude":"55.1861","Address1Id":"3175880","Info1":"Режим работы: 9:00-21:00, обед 14:00-15:00, без выходных.","Address7Id":"73","Address7Name":"Витебск","isNew":"0","Note":""},{"WarehouseId":"20130050","WarehouseName":"Отделение №75 г.Витебск, ул. М.Горького, 72 ( м-н «Грошык»)","Longitude":"30.1518","Latitude":"55.1729","Address1Id":"2711394","Info1":"Режим работы: 9:00-21:00, обед 14:00-15:00, без выходных.","Address7Id":"73","Address7Name":"Витебск","isNew":"0","Note":""},{"WarehouseId":"20130060","WarehouseName":"Отделение №121, г. Витебск, пр-т Московский, 60а","Longitude":"30.2229","Latitude":"55.1801","Address1Id":"2549462","Info1":"Режим работы: 9:00-21:00, обед 14:00-15:00, без выходных.","Address7Id":"73","Address7Name":"Витебск","isNew":"0","Note":""},{"WarehouseId":"20130070","WarehouseName":"Отделение №127, г. Витебск, ул. Ленина, 26а","Longitude":"30.2038","Latitude":"55.1912","Address1Id":"2436634","Info1":"Режим работы: 9:00-21:00, обед 14:00-15:00, без выходных.","Address7Id":"73","Address7Name":"Витебск","isNew":"0","Note":""},{"WarehouseId":"21330010","WarehouseName":"Отделение №18 г. Полоцк, ул. Пушкина, 20","Longitude":"28.783872","Latitude":"55.487734","Address1Id":"2419328","Info1":"Режим работы: 9:00-21:00, обед 14:00-15:00, без выходных.","Address7Id":"72","Address7Name":"ВИТЕБСКАЯ ОБЛАСТЬ","isNew":"0","Note":""},{"WarehouseId":"21230010","WarehouseName":"Отделение №24 г. Орша, 4-й пер. Чернышевского, 4 (м-н \"Евроопт\")","Longitude":"30.43167","Latitude":"54.524851","Address1Id":"887041","Info1":"Режим работы: 9:00-21:00, обед 14:00-15:00, без выходных.","Address7Id":"72","Address7Name":"ВИТЕБСКАЯ ОБЛАСТЬ","isNew":"0","Note":""},{"WarehouseId":"20530010","WarehouseName":"Отделение №35 Глубокое,ул.Ленина,9А-1 (м-н «Евроопт»)","Longitude":"27.6849","Latitude":"55.1386","Address1Id":"886372","Info1":"Режим работы: 10:00-19:00 Обед: 14:00-15:00 Выходные: вс,пн","Address7Id":"72","Address7Name":"ВИТЕБСКАЯ ОБЛАСТЬ","isNew":"0","Note":""},{"WarehouseId":"21330030","WarehouseName":"Отделение №36 г. Новополоцк, ул. Блохина, 13","Longitude":"28.6362","Latitude":"55.5344","Address1Id":"430983","Info1":"Режим работы: 9:00-21:00, обед 14:00-15:00, без выходных.","Address7Id":"72","Address7Name":"ВИТЕБСКАЯ ОБЛАСТЬ","isNew":"0","Note":""},{"WarehouseId":"21930010","WarehouseName":"Отделение №95 г. Новолукомль, ул. Заводская, 2а ( м-н «Евроопт»)","Longitude":"29.1418","Latitude":"54.6521","Address1Id":"2549465","Info1":"Режим работы: 10:00-19:00 Обед: 14:00-15:00 Выходные: вс,пн","Address7Id":"72","Address7Name":"ВИТЕБСКАЯ ОБЛАСТЬ","isNew":"0","Note":""},{"WarehouseId":"20630010","WarehouseName":"Отделение №101 г.Городок, ул. Толкачева, 5а","Longitude":"29.9749","Latitude":"55.471","Address1Id":"3258554","Info1":"Режим работы: 10:00-19:00 Обед: 14:00-15:00 Выходные: вс,пн","Address7Id":"72","Address7Name":"ВИТЕБСКАЯ ОБЛАСТЬ","isNew":"0","Note":""},{"WarehouseId":"22130010","WarehouseName":"Отделение № 119, а.г. Шумилино, ул. Ленинская, 32 ( м-н \"Евроопт\")","Longitude":"29.6186","Latitude":"55.3012","Address1Id":"2201656","Info1":"Режим работы: 10:00-19:00 Обед: 14:00-15:00 Выходные: вс,пн","Address7Id":"72","Address7Name":"ВИТЕБСКАЯ ОБЛАСТЬ","isNew":"0","Note":""},{"WarehouseId":"21330020","WarehouseName":"Отделение № 135, г. Полоцк, ул. Зыгина, 57а","Longitude":"28.7577","Latitude":"55.4961","Address1Id":"2784279","Info1":"Режим работы: 9:00-21:00, обед 14:00-15:00, без выходных.","Address7Id":"72","Address7Name":"ВИТЕБСКАЯ ОБЛАСТЬ","isNew":"0","Note":""},{"WarehouseId":"21230020","WarehouseName":"Отделение № 133, г. Орша, ул. Ленина, 93","Longitude":"30.4363","Latitude":"54.521","Address1Id":"2156908","Info1":"Режим работы: 9:00-21:00, обед 14:00-15:00, без выходных.","Address7Id":"72","Address7Name":"ВИТЕБСКАЯ ОБЛАСТЬ","isNew":"0","Note":""},{"WarehouseId":"21230030","WarehouseName":"Отделение №153, г. Барань ул. Оршанская 9","Longitude":"30.3202","Latitude":"54.4845","Address1Id":"337640","Info1":"График работы:  с 9:00 до 21:00 обед с 14:00 до 15:00 ежедневно","Address7Id":"72","Address7Name":"ВИТЕБСКАЯ ОБЛАСТЬ","isNew":"1","Note":""},{"WarehouseId":"21930020","WarehouseName":"Отделение № 139, г. Чашники, ул. Космонавтов, 4","Longitude":"29.1577","Latitude":"54.8592","Address1Id":"2295729","Info1":"График работы:  с 10:00 до 19:00 обед с 14:00 до 15:00 вых: вс, пн","Address7Id":"72","Address7Name":"ВИТЕБСКАЯ ОБЛАСТЬ","isNew":"1","Note":""},{"WarehouseId":"20330010","WarehouseName":"Отделение №141, г. Браслав, ул. Дзержинского, 28В","Longitude":"27.0432","Latitude":"55.6424","Address1Id":"886352","Info1":"График работы:  с 10:00 до 19:00 обед с 14:00 до 15:00  вых: вс, пн","Address7Id":"72","Address7Name":"ВИТЕБСКАЯ ОБЛАСТЬ","isNew":"1","Note":""},{"WarehouseId":"21730010","WarehouseName":"Отделение №173, г. Толочин, ул. Энгельса, 79","Longitude":"29.6799","Latitude":"54.4025","Address1Id":"2734719","Info1":"График работы: с 9:00 до 21:00 обед с 14:00 до 15:00 ежедневно","Address7Id":"72","Address7Name":"ВИТЕБСКАЯ ОБЛАСТЬ","isNew":"1","Note":""},{"WarehouseId":"21330050","WarehouseName":"Отделение №178 г. Новополоцк ул. Еронько 7а","Longitude":"28.6906","Latitude":"55.5138","Address1Id":"3046602","Info1":"График работы: 09:00 - 21:00, без обеда, без выходных","Address7Id":"72","Address7Name":"ВИТЕБСКАЯ ОБЛАСТЬ","isNew":"1","Note":""},{"WarehouseId":"30130010","WarehouseName":"Отделение №10  г. Гомель, ул. Кирова 136 («м-н Евроопт»)","Longitude":"30.9902","Latitude":"52.4501","Address1Id":"886180","Info1":"Режим работы: 9.00-21.00, без обеда, без выходных.","Address7Id":"75","Address7Name":"Гомель","isNew":"0","Note":""},{"WarehouseId":"30130030","WarehouseName":"Отделение №39 г. Гомель, ул. Владимирова, 16 (м-н \"Евроопт\")","Longitude":"30.9416","Latitude":"52.42581","Address1Id":"101954","Info1":"Режим работы: 9:00-21:00, обед 14:00-15:00, без выходных.","Address7Id":"75","Address7Name":"Гомель","isNew":"0","Note":""},{"WarehouseId":"30130050","WarehouseName":"Отделение №71 г. Гомель, ул. Олимпийская, 12А (м-н «Копеечка»)","Longitude":"31.0229","Latitude":"52.4798","Address1Id":"3141802","Info1":"Режим работы: 9:00-21:00, обед 14:00-15:00, без выходных.","Address7Id":"75","Address7Name":"Гомель","isNew":"0","Note":""},{"WarehouseId":"30130060","WarehouseName":"Отделение №89 г.Гомель, ул. Хатаевича, 9","Longitude":"31.0164","Latitude":"52.4453","Address1Id":"359384","Info1":"Режим работы: 9:00-21:00, обед 14:00-15:00, без выходных.","Address7Id":"75","Address7Name":"Гомель","isNew":"0","Note":""},{"WarehouseId":"30130070","WarehouseName":"Отделение №102 г.Гомель ул. Хмельницкого, 79","Longitude":"30.9703","Latitude":"52.4127","Address1Id":"886226","Info1":"Режим работы: 9:00-21:00, обед 14:00-15:00, без выходных.","Address7Id":"75","Address7Name":"Гомель","isNew":"0","Note":""},{"WarehouseId":"31330010","WarehouseName":"Отделение №21 г. Мозырь, бульвар Юности, 110А (м-н \"Евроопт\")","Longitude":"29.2119","Latitude":"52.0266","Address1Id":"886191","Info1":"Режим работы: 9:00-21:00, обед 14:00-15:00, без выходных.","Address7Id":"74","Address7Name":"ГОМЕЛЬСКАЯ ОБЛАСТЬ","isNew":"0","Note":""},{"WarehouseId":"30830010","WarehouseName":"Отделение №54 г.Жлобин, микрорайон 18-й, 43 (м-н «Доброном»)","Longitude":"30.0384","Latitude":"52.9119","Address1Id":"2364282","Info1":"Режим работы: 9:00-21:00, обед 14:00-15:00, без выходных.","Address7Id":"74","Address7Name":"ГОМЕЛЬСКАЯ ОБЛАСТЬ","isNew":"0","Note":""},{"WarehouseId":"30930010","WarehouseName":"Отделение №55 г.Калинковичи, ул.Советская, 13 (м-н «Евроопт»)","Longitude":"29.3422","Latitude":"52.1363","Address1Id":"886246","Info1":"Режим работы: 10:00-19:00 Обед: 14:00-15:00 Выходные: вс,пн","Address7Id":"74","Address7Name":"ГОМЕЛЬСКАЯ ОБЛАСТЬ","isNew":"0","Note":""},{"WarehouseId":"31630010","WarehouseName":"Отделение №56 г.Речица, ул.Пролетарская, 118-3 («м-н Евроопт»)","Longitude":"30.3609","Latitude":"52.3638","Address1Id":"3038515","Info1":"Режим работы: 9:00-21:00, обед 14:00-15:00, без выходных.","Address7Id":"74","Address7Name":"ГОМЕЛЬСКАЯ ОБЛАСТЬ","isNew":"0","Note":""},{"WarehouseId":"31730010","WarehouseName":"Отделение №61 гг.Рогачев ул.Богатырева, 118 (м-н «Евроопт»)","Longitude":"30.0645","Latitude":"53.1109","Address1Id":"886129","Info1":"Режим работы: 10:00-19:00 Обед: 14:00-15:00 Выходные: вс,пн","Address7Id":"74","Address7Name":"ГОМЕЛЬСКАЯ ОБЛАСТЬ","isNew":"0","Note":""},{"WarehouseId":"31830010","WarehouseName":"Отделение №58 г.Светлогорск, м-н Молодежный, 52а ( м-н «Евроопт»)","Longitude":"29.7274","Latitude":"52.6223","Address1Id":"2778671","Info1":"Режим работы: 9:00-21:00, обед 14:00-15:00, без выходных.","Address7Id":"74","Address7Name":"ГОМЕЛЬСКАЯ ОБЛАСТЬ","isNew":"0","Note":""},{"WarehouseId":"31430010","WarehouseName":"Отделение №83 г. Наровля, ул. Корзуна А.Г., 64","Longitude":"29.5038","Latitude":"51.784","Address1Id":"887075","Info1":"Режим работы: 10:00-19:00 Обед: 14:00-15:00 Выходные: вс,пн","Address7Id":"74","Address7Name":"ГОМЕЛЬСКАЯ ОБЛАСТЬ","isNew":"0","Note":""},{"WarehouseId":"30430010","WarehouseName":"Отделение №84 г. Ветка, ул. Заслонова К.С., 1Д","Longitude":"31.1685","Latitude":"52.5685","Address1Id":"887087","Info1":"Режим работы: 10:00-19:00 Обед: 14:00-15:00 Выходные: вс,пн","Address7Id":"74","Address7Name":"ГОМЕЛЬСКАЯ ОБЛАСТЬ","isNew":"0","Note":""},{"WarehouseId":"31530010","WarehouseName":"Отделение №115 г.Петриков, ул. Бумажкова, 3В","Longitude":"28.4768","Latitude":"52.1204","Address1Id":"3019991","Info1":"Режим работы: 10:00-19:00 Обед: 14:00-15:00 Выходные: вс,пн","Address7Id":"74","Address7Name":"ГОМЕЛЬСКАЯ ОБЛАСТЬ","isNew":"0","Note":""},{"WarehouseId":"32030010","WarehouseName":"Отделение №85 г.Чечерск, пер.Первомайский, 4","Longitude":"30.9104","Latitude":"52.9155","Address1Id":"887048","Info1":"Режим работы: 10:00-19:00 Обед: 14:00-15:00 Выходные: вс,пн","Address7Id":"74","Address7Name":"ГОМЕЛЬСКАЯ ОБЛАСТЬ","isNew":"0","Note":""},{"WarehouseId":"31130010","WarehouseName":"Отделение №130, г. Лельчицы, ул. Советская, 28","Longitude":"28.334","Latitude":"51.7841","Address1Id":"2618781","Info1":"Режим работы: 10:00-19:00 Обед: 14:00-15:00 Выходные: вс,пн","Address7Id":"74","Address7Name":"ГОМЕЛЬСКАЯ ОБЛАСТЬ","isNew":"0","Note":""},{"WarehouseId":"31330020","WarehouseName":"Отделение № 132, г. Мозырь, ул. Студенческая, 46","Longitude":"29.2583","Latitude":"52.049","Address1Id":"517008","Info1":"График работы с 10.00-22.00 обед 14.00-15.00- без выходных","Address7Id":"74","Address7Name":"ГОМЕЛЬСКАЯ ОБЛАСТЬ","isNew":"0","Note":""},{"WarehouseId":"31930010","WarehouseName":"Отделение № 138, г. Хойники, ул. 70 лет Октября, 1","Longitude":"29.9897","Latitude":"51.9052","Address1Id":"887031","Info1":"Режим работы: 10:00-19:00 Обед: 14:00-15:00 Выходные: вс,пн","Address7Id":"74","Address7Name":"ГОМЕЛЬСКАЯ ОБЛАСТЬ","isNew":"1","Note":""},{"WarehouseId":"31330030","WarehouseName":"Отделение №176 г. Мозырь ул. Горького 5","Longitude":"29.2735","Latitude":"52.0461","Address1Id":"3206087","Info1":"График работы: пн-пт  с 9:00 до 21:00 без обеда; сб-вс с 9.00 до 21.00, обед 14.00-15.00","Address7Id":"74","Address7Name":"ГОМЕЛЬСКАЯ ОБЛАСТЬ","isNew":"1","Note":""},{"WarehouseId":"30530010","WarehouseName":"Отделение №129, г. Добруш, ул. Полевая, 3а\/1","Longitude":"31.3416","Latitude":"52.3862","Address1Id":"3095660","Info1":"График работы:  с 10:00 до 19:00 обед с 14:00 до 15:00 вых: вс, пн","Address7Id":"74","Address7Name":"ГОМЕЛЬСКАЯ ОБЛАСТЬ","isNew":"1","Note":""},{"WarehouseId":"31630020","WarehouseName":"Отделение №180 г. Речица ул. Достоевского 27-54","Longitude":"30.4117","Latitude":"52.361","Address1Id":"450215","Info1":"График работы:  с 9:00 до 21:00 обед с 14:00 до 15:00 ежедневно","Address7Id":"74","Address7Name":"ГОМЕЛЬСКАЯ ОБЛАСТЬ","isNew":"1","Note":""},{"WarehouseId":"40130010","WarehouseName":"Отделение №16 г. Гродно, ул. Курчатова, 47","Longitude":"23.8569","Latitude":"53.706145","Address1Id":"1662729","Info1":"Режим работы: 9:00-21:00, обед 14:00-15:00, без выходных.","Address7Id":"77","Address7Name":"Гродно","isNew":"0","Note":""},{"WarehouseId":"40130020","WarehouseName":"Отделение №37 г. Гродно, ул. Соломовой, 104\/1 (м-н \"Евроопт\")","Longitude":"23.7846","Latitude":"53.6586","Address1Id":"1803741","Info1":"Режим работы: 9:00-21:00, обед 14:00-15:00, без выходных.","Address7Id":"77","Address7Name":"Гродно","isNew":"0","Note":""},{"WarehouseId":"40130060","WarehouseName":"Отделение №63 г.Гродно, пр-т. Купалы, 82А (м-н «Евроопт»)","Longitude":"23.849849","Latitude":"53.654637","Address1Id":"2828448","Info1":"Режим работы: 9:00-21:00, обед 14:00-15:00, без выходных.","Address7Id":"77","Address7Name":"Гродно","isNew":"0","Note":""},{"WarehouseId":"30130040","WarehouseName":"Отделение №68 г. Гомель, ул. Ефремова, 11","Longitude":"30.9651","Latitude":"52.4588","Address1Id":"886337","Info1":"Режим работы: 9:00-21:00, обед 14:00-15:00, без выходных.","Address7Id":"75","Address7Name":"Гомель","isNew":"0","Note":""},{"WarehouseId":"40130090","WarehouseName":"Отделение №118, г. Гродно, ул. Тимирязева, 8","Longitude":"23.8453","Latitude":"53.6886","Address1Id":"2428564","Info1":"Режим работы: 9:00-21:00, обед 14:00-15:00, без выходных.","Address7Id":"77","Address7Name":"Гродно","isNew":"0","Note":""},{"WarehouseId":"40130130","WarehouseName":"Отделение №151, г. Гродно, ул. Огинского 12","Longitude":"23.8159","Latitude":"53.6182","Address1Id":"2887561","Info1":"Режим работы: с 9:00 до 21:00 без обеда ежедневно","Address7Id":"77","Address7Name":"Гродно","isNew":"1","Note":""},{"WarehouseId":"40130120","WarehouseName":"Отделение №150, г. Гродно, Озерское шоссе 35","Longitude":"23.8643","Latitude":"53.6899","Address1Id":"3221810","Info1":"График работы: 09:00-21:00 обед 14:00-15:00","Address7Id":"77","Address7Name":"Гродно","isNew":"1","Note":""},{"WarehouseId":"40930010","WarehouseName":"Отделение №23 г. Лида ул. Красноармейская, 63","Longitude":"25.2565","Latitude":"53.8915","Address1Id":"886060","Info1":"Режим работы: 9:00-21:00, обед 14:00-15:00, без выходных.","Address7Id":"76","Address7Name":"ГРОДНЕНСКАЯ ОБЛАСТЬ","isNew":"0","Note":""},{"WarehouseId":"41630010","WarehouseName":"Отделение №29 г. Сморгонь, ул. Коласа, 120а (м-н \"Евроопт\")","Longitude":"26.416407","Latitude":"54.472848","Address1Id":"2164091","Info1":"График работы: 09.00-21.00, обед 14.00-15.00","Address7Id":"76","Address7Name":"ГРОДНЕНСКАЯ ОБЛАСТЬ","isNew":"0","Note":""},{"WarehouseId":"40930020","WarehouseName":"Отделение №38 г.Лида, ул. Гагарина, 27 ( м-н \"Евроопт\")","Longitude":"25.296","Latitude":"53.8888","Address1Id":"2458456","Info1":"Режим работы: 9:00-21:00, обед 14:00-15:00, без выходных.","Address7Id":"76","Address7Name":"ГРОДНЕНСКАЯ ОБЛАСТЬ","isNew":"0","Note":""},{"WarehouseId":"41530010","WarehouseName":"Отделение №41 г. Слоним, ул. Ершова, 58 (м-н \"Евроопт\")","Longitude":"25.3052","Latitude":"53.082","Address1Id":"886081","Info1":"Режим работы: 10:00-19:00 Обед: 14:00-15:00 Выходные: вс,пн","Address7Id":"76","Address7Name":"ГРОДНЕНСКАЯ ОБЛАСТЬ","isNew":"0","Note":""},{"WarehouseId":"41430010","WarehouseName":"Отделение №51 г.Свислочь, ул.Цагельник, 12 (м-н «Евроопт»)","Longitude":"24.1086","Latitude":"53.036","Address1Id":"2458507","Info1":"Режим работы: 10:00-19:00 Обед: 14:00-15:00 Выходные: вс,пн","Address7Id":"76","Address7Name":"ГРОДНЕНСКАЯ ОБЛАСТЬ","isNew":"0","Note":""},{"WarehouseId":"41230010","WarehouseName":"Отделение №66 г. Островец, ул. Аэродромная,  27 (м-н «Евроопт»)","Longitude":"25.977993","Latitude":"54.609458","Address1Id":"2306649","Info1":"Режим работы: 10:00-19:00 Обед: 14:00-15:00 Выходные: вс,пн","Address7Id":"76","Address7Name":"ГРОДНЕНСКАЯ ОБЛАСТЬ","isNew":"0","Note":""},{"WarehouseId":"40130030","WarehouseName":"Отделение №52 г.Скидель, ул.Ленина, 82а (м-н \"Евроопт\")","Longitude":"24.2407","Latitude":"53.5759","Address1Id":"2781693","Info1":"Режим работы: 10:00-19:00 Обед: 14:00-15:00 Выходные: вс,пн","Address7Id":"76","Address7Name":"ГРОДНЕНСКАЯ ОБЛАСТЬ","isNew":"0","Note":""},{"WarehouseId":"40130040","WarehouseName":"Отделение №57 г. Новогрудок, ул. Советская, 17 (м-н «Евроопт»)","Longitude":"25.824684","Latitude":"53.594579","Address1Id":"441800","Info1":"Режим работы: 9:00-21:00, 14:00-15:00, Без выходных","Address7Id":"76","Address7Name":"ГРОДНЕНСКАЯ ОБЛАСТЬ","isNew":"0","Note":""},{"WarehouseId":"40330010","WarehouseName":"Отделение №46  г.Волковыск, ул.Социалистическая, д.2а  (м-н «Евроопт»)","Longitude":"24.4506","Latitude":"53.1614","Address1Id":"886354","Info1":"Режим работы: 10:00-19:00 Обед: 14:00-15:00 Выходные: вс,пн","Address7Id":"76","Address7Name":"ГРОДНЕНСКАЯ ОБЛАСТЬ","isNew":"0","Note":""},{"WarehouseId":"41030010","WarehouseName":"Отделение №88 г. Мосты, пр-т Мира, 2а","Longitude":"24.5412","Latitude":"53.4209","Address1Id":"2430348","Info1":"Режим работы: 10:00-19:00 Обед: 14:00-15:00 Выходные: вс,пн","Address7Id":"76","Address7Name":"ГРОДНЕНСКАЯ ОБЛАСТЬ","isNew":"0","Note":""},{"WarehouseId":"40530010","WarehouseName":"Отделение №97 г.Дятлово, ул Слонимская, 6а","Longitude":"25.3972","Latitude":"53.4689","Address1Id":"887051","Info1":"Режим работы: 10:00-19:00 Обед: 14:00-15:00 Выходные: вс,пн","Address7Id":"76","Address7Name":"ГРОДНЕНСКАЯ ОБЛАСТЬ","isNew":"0","Note":""},{"WarehouseId":"70130010","WarehouseName":"Отделение №1 г. Минск, ул. Монтажников, 2 (м-н \"Евроопт\")","Longitude":"27.416178","Latitude":"53.873516","Address1Id":"360546","Info1":"Режим работы: 9.00-21.00, без обеда, без выходных.","Address7Id":"78","Address7Name":"Минск","isNew":"0","Note":""},{"WarehouseId":"70130020","WarehouseName":"Отделение №2 г. Минск, ул. Неманская, 67 (м-н \"Грошык\")","Longitude":"27.428809","Latitude":"53.92405","Address1Id":"2352730","Info1":"Режим работы: 9:00-21:00, обед 14:00-15:00, без выходных.","Address7Id":"78","Address7Name":"Минск","isNew":"0","Note":""},{"WarehouseId":"70130030","WarehouseName":"Отделение №3 г. Минск, ул. 50 лет Победы, 5а (м-н \"Евроопт\")","Longitude":"27.719198","Latitude":"53.947987","Address1Id":"1298338","Info1":"Режим работы: 9:00-21:00, обед 14:00-15:00, без выходных.","Address7Id":"78","Address7Name":"Минск","isNew":"0","Note":""},{"WarehouseId":"70130040","WarehouseName":"Отделение №4 г. Минск, ул. Мележа, 5-1 (м-н \"Хит\")","Longitude":"27.596937","Latitude":"53.940313","Address1Id":"1967247","Info1":"Режим работы: 9.00-21.00, без обеда, без выходных.","Address7Id":"78","Address7Name":"Минск","isNew":"0","Note":""},{"WarehouseId":"70130050","WarehouseName":"Отделение №5 г. Минск, ул. Жилуновича, 41 (м-н \"Евроопт\")","Longitude":"27.629187","Latitude":"53.869603","Address1Id":"530107","Info1":"Режим работы: 9:00-21:00, обед 14:00-15:00, без выходных.","Address7Id":"78","Address7Name":"Минск","isNew":"0","Note":""},{"WarehouseId":"70130060","WarehouseName":"Отделение №6 г. Минск, ул. Притыцкого, 29 (м-н \"Евроопт\")","Longitude":"27.484621","Latitude":"53.907684","Address1Id":"886091","Info1":"Режим работы: 9.00-21.00, без обеда, без выходных.","Address7Id":"78","Address7Name":"Минск","isNew":"0","Note":""},{"WarehouseId":"70130070","WarehouseName":"Отделение №7  г. Минск, ул. Червякова, 4","Longitude":"27.551869","Latitude":"53.920454","Address1Id":"2493280","Info1":"Режим работы: 9:00-21:00, обед 14:00-15:00, без выходных.","Address7Id":"78","Address7Name":"Минск","isNew":"0","Note":""},{"WarehouseId":"70130090","WarehouseName":"Отделение №9 г. Минск, ул. Казимировская, 6 (м-н \"Евроопт\")","Longitude":"27.429671","Latitude":"53.91749","Address1Id":"1047619","Info1":"Режим работы: 9.00-21.00, без обеда, без выходных.","Address7Id":"78","Address7Name":"Минск","isNew":"0","Note":""},{"WarehouseId":"70130100","WarehouseName":"Отделение №12 г. Минск, ул. Плеханова, 38 (м-н \"Евроопт\")","Longitude":"27.609792","Latitude":"53.866136","Address1Id":"727528","Info1":"Режим работы: 9:00-21:00, обед 14:00-15:00, без выходных.","Address7Id":"78","Address7Name":"Минск","isNew":"0","Note":""},{"WarehouseId":"70130110","WarehouseName":"Отделение №142, г. Минск, ул. Гошкевича, 3","Longitude":"27.568775","Latitude":"53.840127","Address1Id":"2352912","Info1":"Режим работы: 9.00-21.00, без обеда, без выходных.","Address7Id":"78","Address7Name":"Минск","isNew":"0","Note":""},{"WarehouseId":"70130130","WarehouseName":"Отделение №43 г. Минск, пр. Дзержинского, 104 (м-н \"Евроопт\")","Longitude":"27.4788","Latitude":"53.86","Address1Id":"887085","Info1":"Режим работы: 9:00-21:00, обед 14:00-15:00, без выходных.","Address7Id":"78","Address7Name":"Минск","isNew":"0","Note":""},{"WarehouseId":"70130150","WarehouseName":"Отделение №49, г. Минск, ул. Левкова, 9","Longitude":"27.5572","Latitude":"53.8806","Address1Id":"886084","Info1":"Режим работы: 9:00-21:00, обед 14:00-15:00, без выходных.","Address7Id":"78","Address7Name":"Минск","isNew":"0","Note":""},{"WarehouseId":"70130140","WarehouseName":"Отделение №50 г.Минск ул.Богдановича, 134 (м-н «Евроопт)","Longitude":"27.5843","Latitude":"53.9373","Address1Id":"886141","Info1":"Режим работы: 9:00-21:00, обед 14:00-15:00, без выходных.","Address7Id":"78","Address7Name":"Минск","isNew":"0","Note":""},{"WarehouseId":"70130600","WarehouseName":"Отделение №185, г. Минск, ул. Куйбышева, 69","Longitude":"27.5761","Latitude":"53.9209","Address1Id":"2365163","Info1":"График работы: пн-пт 09.00-21.00 без обеда, сб-вс 09.00-21.00 обед 14.00-15.00","Address7Id":"78","Address7Name":"Минск","isNew":"0","Note":""},{"WarehouseId":"70130160","WarehouseName":"Отделение №74 г. Минск, пр-т Победителей, 89к3 ( м-н Евроопт»)","Longitude":"27.50319","Latitude":"53.9325","Address1Id":"2721832","Info1":"Режим работы: 9:00-21:00, обед 14:00-15:00, без выходных.","Address7Id":"78","Address7Name":"Минск","isNew":"0","Note":""},{"WarehouseId":"70130180","WarehouseName":"Отделение №69 г.Минск, пр-т Пушкина, 29б ( м-н «Грошык»)","Longitude":"27.495","Latitude":"53.9014","Address1Id":"3144395","Info1":"Режим работы: 9:00-21:00, обед 14:00-15:00, без выходных.","Address7Id":"78","Address7Name":"Минск","isNew":"0","Note":""},{"WarehouseId":"70130190","WarehouseName":"Отделение №86  г.Минск, ул.Слободская, 131","Longitude":"27.4556","Latitude":"53.8456","Address1Id":"887017","Info1":"Режим работы: 9:00-21:00, обед 14:00-15:00, без выходных.","Address7Id":"78","Address7Name":"Минск","isNew":"0","Note":""},{"WarehouseId":"70130200","WarehouseName":"Отделение №92 г. Минск, ул. Уманская, 54 (ТЦ «Глобо» пав. 101-102, 2 этаж)","Longitude":"27.4984","Latitude":"53.875","Address1Id":"2419440","Info1":"Режим работы: 10:00-19:00, обед 14:00-15:00, без выходных.","Address7Id":"78","Address7Name":"Минск","isNew":"0","Note":""},{"WarehouseId":"70130210","WarehouseName":"Отделение №96 г.Минск ул. Рокоссовского, 99","Longitude":"27.6118","Latitude":"53.8596","Address1Id":"482318","Info1":"Режим работы: 9.00-21.00, без обеда, без выходных.","Address7Id":"78","Address7Name":"Минск","isNew":"0","Note":""},{"WarehouseId":"70130230","WarehouseName":"Отделение №98 г. Минск, ул. Дунина Марцинкевича, 2\/1","Longitude":"27.4819","Latitude":"53.9059","Address1Id":"2676399","Info1":"Режим работы: 9.00-21.00, обед 14.00-15.00, без выходных.","Address7Id":"78","Address7Name":"Минск","isNew":"0","Note":""},{"WarehouseId":"70130340","WarehouseName":"Отделение № 110, Минск, ул. Туровского, 6 (ТЦ Променад, вход в ТЦ №1).","Longitude":"27.6547","Latitude":"53.9327","Address1Id":"3124962","Info1":"Режим работы: 9.00-21.00, без обеда, без выходных.","Address7Id":"78","Address7Name":"Минск","isNew":"0","Note":""},{"WarehouseId":"70130390","WarehouseName":"Отделение № 124, г. Минск, ул. Руссиянова, 4","Longitude":"27.6859","Latitude":"53.9434","Address1Id":"2408340","Info1":"Режим работы: 9.00-21.00, без обеда, без выходных.","Address7Id":"78","Address7Name":"Минск","isNew":"0","Note":""},{"WarehouseId":"70130320","WarehouseName":"Отделение №87, г. Минск, ул. Чечота, 2","Longitude":"27.4792","Latitude":"53.8487","Address1Id":"2098817","Info1":"Режим работы: 9.00-21.00, без обеда, без выходных.","Address7Id":"78","Address7Name":"Минск","isNew":"0","Note":""},{"WarehouseId":"70130310","WarehouseName":"Отделение №108 г. Минск, ул. Казинца, 52а","Longitude":"27.5107","Latitude":"53.8556","Address1Id":"3043799","Info1":"Режим работы: 9.00-21.00, без обеда, без выходных.","Address7Id":"78","Address7Name":"Минск","isNew":"0","Note":""},{"WarehouseId":"70130250","WarehouseName":"Отделение №100 г.Минск, ул. Есенина, 76","Longitude":"27.4447","Latitude":"53.8614","Address1Id":"887013","Info1":"Режим работы: 9:00-21:00, обед 14:00-15:00, без выходных.","Address7Id":"78","Address7Name":"Минск","isNew":"0","Note":""},{"WarehouseId":"70130410","WarehouseName":"Отделение №125, г. Минск, пр-т Газеты Правды, 1","Longitude":"27.4869","Latitude":"53.8715","Address1Id":"2483204","Info1":"Режим работы: 9.00-21.00, без обеда, без выходных.","Address7Id":"78","Address7Name":"Минск","isNew":"0","Note":""},{"WarehouseId":"70130360","WarehouseName":"Отделение №116 г. Минск ул Купревича, 18","Longitude":"27.6954","Latitude":"53.9315","Address1Id":"3298533","Info1":"Режим работы: 9:00-21:00, обед 14:00-15:00, без выходных.","Address7Id":"78","Address7Name":"Минск","isNew":"0","Note":""},{"WarehouseId":"70130300","WarehouseName":"Отделение №107 г. Минск, ул. Машерова, 51","Longitude":"27.5287","Latitude":"53.9112","Address1Id":"3028397","Info1":"Режим работы: 9:00-21:00, обед 14:00-15:00, без выходных.","Address7Id":"78","Address7Name":"Минск","isNew":"0","Note":""},{"WarehouseId":"70130450","WarehouseName":"Отделение №148, г. Минск, ул. Шпилевского, 54","Longitude":"27.5632","Latitude":"53.8466","Address1Id":"2358700","Info1":"Режим работы: с 9:00 до 21:00 без обеда ежедневно","Address7Id":"78","Address7Name":"Минск","isNew":"0","Note":""},{"WarehouseId":"70130580","WarehouseName":"Отделение №183 г. Минск Багратиона 55б","Longitude":"27.6322","Latitude":"53.9077","Address1Id":"3327071","Info1":"Режим работы: 9:00-21:00, обед 14:00-15:00, без выходных.","Address7Id":"78","Address7Name":"Минск","isNew":"1","Note":""},{"WarehouseId":"70130350","WarehouseName":"Отделение № 111, г. Минск, ул. Одинцова, 65","Longitude":"27.4414","Latitude":"53.8999","Address1Id":"886074","Info1":"График работы: 09.00-21.00 обед 14.00-15.00","Address7Id":"78","Address7Name":"Минск","isNew":"1","Note":""},{"WarehouseId":"70130380","WarehouseName":"Отделение № 123 г. Минск, ул. Янковского, 44","Longitude":"27.4535","Latitude":"53.8808","Address1Id":"2342967","Info1":"График работы: 09.00-21.00 обед 14.00-15.00","Address7Id":"78","Address7Name":"Минск","isNew":"1","Note":""},{"WarehouseId":"70130590","WarehouseName":"Отделение №182 г. Минск Прушинских 2","Longitude":"27.5869","Latitude":"53.8389","Address1Id":"1847806","Info1":"Режим работы: с 9:00 до 21:00 без обеда ежедневно","Address7Id":"78","Address7Name":"Минск","isNew":"1","Note":""},{"WarehouseId":"70130260","WarehouseName":"Отделение №103 г. Минск, ул. Мазурова, 24","Longitude":"27.4221","Latitude":"53.8964","Address1Id":"886150","Info1":"График работы:  с 9:00 до 21:00 обед с 14:00 до 15:00 ежедневно","Address7Id":"78","Address7Name":"Минск","isNew":"1","Note":""},{"WarehouseId":"70130240","WarehouseName":"Отделение №99 г. Минск, пр-т Независимости, 40а","Longitude":"27.5778","Latitude":"53.9089","Address1Id":"3096686","Info1":"График работы: 09.00-21.00 обед 14.00-15.00","Address7Id":"78","Address7Name":"Минск","isNew":"1","Note":""},{"WarehouseId":"70130550","WarehouseName":"Отделение №165 г. Минск, ул. Бурдейного, 6В (ТЦ ТОП)","Longitude":"27.455","Latitude":"53.905","Address1Id":"2607859","Info1":"График работы: 10:00-19:00, обед 14:00-15:00, ежедневно ,(режим работы ТЦ ТОП с 10:00 до 19:00)","Address7Id":"78","Address7Name":"Минск","isNew":"1","Note":""},{"WarehouseId":"70130470","WarehouseName":"Отделение №155 г.Минск, ул. Люцинская, 1","Longitude":"27.4425","Latitude":"53.9315","Address1Id":"2469114","Info1":"Режим работы: 9.00-21.00, без обеда, без выходных.","Address7Id":"78","Address7Name":"Минск","isNew":"1","Note":""},{"WarehouseId":"70130280","WarehouseName":"Отделение №105 г. Минск, ул. Шаранговича, 34","Longitude":"27.4448","Latitude":"53.8839","Address1Id":"2708494","Info1":"График работы:  с 9:00 до 21:00 без обеда ежедневно","Address7Id":"78","Address7Name":"Минск","isNew":"1","Note":""},{"WarehouseId":"70130420","WarehouseName":"Отеделение № 137, г. Минск, ул. Матусевича, 35г","Longitude":"27.458","Latitude":"53.9159","Address1Id":"887030","Info1":"График работы: 09.00-21.00 обед 14.00-15.00","Address7Id":"78","Address7Name":"Минск","isNew":"1","Note":""},{"WarehouseId":"70130220","WarehouseName":"Отделение №82 г.Минск ул. Ильянская, 4","Longitude":"27.4729","Latitude":"53.933","Address1Id":"2449450","Info1":"График работы: 09.00-21.00 обед 14.00-15.00","Address7Id":"78","Address7Name":"Минск","isNew":"1","Note":""},{"WarehouseId":"70130460","WarehouseName":"Отделение №154 г. Минск, ул. Райниса, 2а","Longitude":"27.6126","Latitude":"53.8733","Address1Id":"3115921","Info1":"График работы: 09:00-21:00 обед 14:00-15:00","Address7Id":"78","Address7Name":"Минск","isNew":"1","Note":""},{"WarehouseId":"71330010","WarehouseName":"Отделение №20 г. Молодечно, ул. Громадовская 8 (м-н «Евроопт»)","Longitude":"26.8359","Latitude":"54.3103","Address1Id":"887109","Info1":"Режим работы: 9:00-21:00, обед 14:00-15:00, без выходных.","Address7Id":"79","Address7Name":"МИНСКАЯ ОБЛАСТЬ","isNew":"0","Note":""},{"WarehouseId":"70330010","WarehouseName":"Отделение №22 г. Борисов, ул. Гагарина, 107","Longitude":"28.4861","Latitude":"54.2066","Address1Id":"838980","Info1":"Режим работы: 9:00-21:00, обед 14:00-15:00, без выходных.","Address7Id":"79","Address7Name":"МИНСКАЯ ОБЛАСТЬ","isNew":"0","Note":""},{"WarehouseId":"71830010","WarehouseName":"Отделение №26 г. Солигорск, ул. Козлова, 76 (м-н \"Евроопт\")","Longitude":"27.51237","Latitude":"52.781918","Address1Id":"1072776","Info1":"Режим работы: 9:00-21:00, обед 14:00-15:00, без выходных.","Address7Id":"79","Address7Name":"МИНСКАЯ ОБЛАСТЬ","isNew":"0","Note":""},{"WarehouseId":"71630010","WarehouseName":"Отделение №48 г.Слуцк, ул. Богдановича, 42 (м-н \"Евроопт\")","Longitude":"27.5575","Latitude":"53.0204","Address1Id":"727416","Info1":"Режим работы: 10:00-19:00 Обед: 14:00-15:00 Выходные: вс,пн","Address7Id":"79","Address7Name":"МИНСКАЯ ОБЛАСТЬ","isNew":"0","Note":""},{"WarehouseId":"71730010","WarehouseName":"Отделение №59 г. Жодино, ул. Гагарина, 20А","Longitude":"28.2958","Latitude":"54.0921","Address1Id":"3220553","Info1":"Режим работы: 9:00-21:00, обед 14:00-15:00, без выходных.","Address7Id":"79","Address7Name":"МИНСКАЯ ОБЛАСТЬ","isNew":"0","Note":""},{"WarehouseId":"70630010","WarehouseName":"Отделение №60 г.Дзержинск, ул.11 июля, 3а\/1 (м-н «Хит»)","Longitude":"27.144593","Latitude":"53.68168","Address1Id":"3019914","Info1":"Режим работы: 10:00-19:00 Обед: 14:00-15:00 Выходные: вс,пн","Address7Id":"79","Address7Name":"МИНСКАЯ ОБЛАСТЬ","isNew":"0","Note":""},{"WarehouseId":"71930010","WarehouseName":"Отделение №76 г.Старые дороги, ул.Московская, 84 (м-н «Евроопт»)","Longitude":"28.2426","Latitude":"53.0348","Address1Id":"433922","Info1":"Режим работы: 10:00-19:00 Обед: 14:00-15:00 Выходные: вс,пн","Address7Id":"79","Address7Name":"МИНСКАЯ ОБЛАСТЬ","isNew":"0","Note":""},{"WarehouseId":"71830020","WarehouseName":"Отделение №77 г.Солигорск, ул. Железнодорожная 12а (м-н Евроопт)","Longitude":"27.545","Latitude":"52.7944","Address1Id":"2714068","Info1":"Режим работы: 9:00-21:00, обед 14:00-15:00, без выходных.","Address7Id":"79","Address7Name":"МИНСКАЯ ОБЛАСТЬ","isNew":"0","Note":""},{"WarehouseId":"71230010","WarehouseName":"Отделение №70  г.Марьина Горка, ул.Октябрьская, 59А (м-н «Копеечка»)","Longitude":"28.142","Latitude":"53.5149","Address1Id":"2297496","Info1":"Режим работы: 10:00-19:00 Обед: 14:00-15:00 Выходные: вс,пн","Address7Id":"79","Address7Name":"МИНСКАЯ ОБЛАСТЬ","isNew":"0","Note":""},{"WarehouseId":"72030010","WarehouseName":"Отделение №79 г.Столбцы, ул.Мира, 15 (м-н Копеечка)","Longitude":"26.7409","Latitude":"53.4929","Address1Id":"3191864","Info1":"Режим работы: 10:00-19:00 Обед: 14:00-15:00 Выходные: вс,пн","Address7Id":"79","Address7Name":"МИНСКАЯ ОБЛАСТЬ","isNew":"0","Note":""},{"WarehouseId":"72230010","WarehouseName":"Отделение №91 г. Червень, ул. Горбачева, 36","Longitude":"28.4344","Latitude":"53.7054","Address1Id":"1756510","Info1":"Режим работы: 10:00-19:00 Обед: 14:00-15:00 Выходные: вс,пн","Address7Id":"79","Address7Name":"МИНСКАЯ ОБЛАСТЬ","isNew":"0","Note":""},{"WarehouseId":"72130010","WarehouseName":"Отделение № 114, г. Узда, ул. Новицкого, 11","Longitude":"27.2168","Latitude":"53.4705","Address1Id":"887079","Info1":"Режим работы: 10:00-19:00 Обед: 14:00-15:00 Выходные: вс,пн","Address7Id":"79","Address7Name":"МИНСКАЯ ОБЛАСТЬ","isNew":"0","Note":""},{"WarehouseId":"70130370","WarehouseName":"Отделение №120, г. Боровляны, ул. 40 лет Победы, 43","Longitude":"27.676","Latitude":"53.9885","Address1Id":"3299337","Info1":"Режим работы: 9:00-21:00, обед 14:00-15:00, без выходных.","Address7Id":"79","Address7Name":"МИНСКАЯ ОБЛАСТЬ","isNew":"0","Note":""},{"WarehouseId":"71530010","WarehouseName":"Отделение № 134, г. Несвиж, ул. Рокоссовского, 4","Longitude":"26.6793","Latitude":"53.2183","Address1Id":"1174846","Info1":"Режим работы: 10:00-19:00 Обед: 14:00-15:00 Выходные: вс,пн","Address7Id":"79","Address7Name":"МИНСКАЯ ОБЛАСТЬ","isNew":"0","Note":""},{"WarehouseId":"70130440","WarehouseName":"Отделение №145, г. Боровляны, Малиновская, 2А","Longitude":"27.6603","Latitude":"54.0027","Address1Id":"2135890","Info1":"График работы:  с 9:00 до 21:00 без обеда ежедневно","Address7Id":"79","Address7Name":"МИНСКАЯ ОБЛАСТЬ","isNew":"1","Note":""},{"WarehouseId":"71330020","WarehouseName":"Отделение №146, г. Молодечно, ул. Будавников, 17А","Longitude":"26.8533","Latitude":"54.2965","Address1Id":"2828349","Info1":"График работы: 09:00-21:00 обед 14:00-15:00","Address7Id":"79","Address7Name":"МИНСКАЯ ОБЛАСТЬ","isNew":"1","Note":""},{"WarehouseId":"60130010","WarehouseName":"Отделение №14 г. Могилев, ул. Пионерская, 32","Longitude":"30.341228","Latitude":"53.90056","Address1Id":"1903745","Info1":"Режим работы: 9.00-21.00, без обеда, без выходных.","Address7Id":"81","Address7Name":"Могилев","isNew":"0","Note":""},{"WarehouseId":"60130030","WarehouseName":"Отделение №47 г.Могилев, ул.Лазаренко, 73Б («м-н Евроопт»)","Longitude":"30.3073","Latitude":"53.9099","Address1Id":"2732647","Info1":"Режим работы: 9:00-21:00, обед 14:00-15:00, без выходных.","Address7Id":"81","Address7Name":"Могилев","isNew":"0","Note":""},{"WarehouseId":"60130040","WarehouseName":"Отделение №62 г.Могилев, ул.Гагарина, 79 (м-н «Евроопт»)","Longitude":"30.31743","Latitude":"53.88012","Address1Id":"2430355","Info1":"Режим работы: с 9:00 до 21:00 без обеда ежедневно","Address7Id":"81","Address7Name":"Могилев","isNew":"0","Note":""},{"WarehouseId":"60130070","WarehouseName":"Отделение № 112, г. Могилев, ул. Мовчанского, 40А","Longitude":"30.366","Latitude":"53.8771","Address1Id":"887039","Info1":"Режим работы: 9:00-21:00, обед 14:00-15:00, без выходных.","Address7Id":"81","Address7Name":"Могилев","isNew":"0","Note":""},{"WarehouseId":"60130080","WarehouseName":"Отделение № 113, г. Могилев ул Орловского 17В","Longitude":"30.3282","Latitude":"53.916","Address1Id":"2269198","Info1":"Режим работы: 9:00-21:00, обед 14:00-15:00, без выходных.","Address7Id":"81","Address7Name":"Могилев","isNew":"0","Note":""},{"WarehouseId":"70430010","WarehouseName":"Отделение №131, г. Вилейка, ул. Чапаева, 60","Longitude":"26.8966","Latitude":"54.4831","Address1Id":"2437008","Info1":"График работы:  с 10:00 до 19:00 обед с 14:00 до 15:00 вых: вс, пн","Address7Id":"79","Address7Name":"МИНСКАЯ ОБЛАСТЬ","isNew":"1","Note":""},{"WarehouseId":"60330010","WarehouseName":"Отделение №27 г. Бобруйск, ул. Минская, 111 (м-н \"Евроопт\")","Longitude":"29.207051","Latitude":"53.165387","Address1Id":"886065","Info1":"Режим работы: 9:00-21:00, обед 14:00-15:00, без выходных.","Address7Id":"80","Address7Name":"МОГИЛЕВСКАЯ ОБЛАСТЬ","isNew":"0","Note":""},{"WarehouseId":"61630010","WarehouseName":"Отделение №33 г. Осиповичи, ул.Ленинская, д.86Б (м-н \"Копеечка\")","Longitude":"28.637549","Latitude":"53.30598","Address1Id":"2157040","Info1":"Режим работы: 10:00-19:00 Обед: 14:00-15:00 Выходные: вс,пн","Address7Id":"80","Address7Name":"МОГИЛЕВСКАЯ ОБЛАСТЬ","isNew":"0","Note":""},{"WarehouseId":"60330030","WarehouseName":"Отделение №40 г.Бобруйск, ул.Советская, 55 ( м-н «Копеечка»)","Longitude":"29.2248","Latitude":"53.134","Address1Id":"3176826","Info1":"Режим работы: 9:00-21:00, обед 14:00-15:00, без выходных.","Address7Id":"80","Address7Name":"МОГИЛЕВСКАЯ ОБЛАСТЬ","isNew":"0","Note":""},{"WarehouseId":"60630010","WarehouseName":"Отделение №44  г.Горки, ул.Якубовского, 3А  (м-н «Евроопт»)","Longitude":"30.999","Latitude":"54.2817","Address1Id":"887065","Info1":"Режим работы: 10:00-19:00 Обед: 14:00-15:00 Выходные: вс,пн","Address7Id":"80","Address7Name":"МОГИЛЕВСКАЯ ОБЛАСТЬ","isNew":"0","Note":""},{"WarehouseId":"61530010","WarehouseName":"Отделение №53 г.Мстиславль, ул.П.Мстиславца, 1 («м-н Евроопт»)","Longitude":"31.7099","Latitude":"54.0141","Address1Id":"2584082","Info1":"Режим работы: 10:00-19:00 Обед: 14:00-15:00 Выходные: вс,пн","Address7Id":"80","Address7Name":"МОГИЛЕВСКАЯ ОБЛАСТЬ","isNew":"0","Note":""},{"WarehouseId":"61330010","WarehouseName":"Отделение №67 г. Кричев, ул. Фрунзе 1а (м-н «Евроопт»)","Longitude":"31.71706","Latitude":"53.737932","Address1Id":"887066","Info1":"Режим работы: 10:00-19:00 Обед: 14:00-15:00 Выходные: вс,пн","Address7Id":"80","Address7Name":"МОГИЛЕВСКАЯ ОБЛАСТЬ","isNew":"0","Note":""},{"WarehouseId":"60930010","WarehouseName":"Отделение №81 г.Климовичи, ул.Строителей, 1Б ( м-н «Евроопт»)","Longitude":"31.9575","Latitude":"53.5953","Address1Id":"887093","Info1":"Режим работы: 10:00-19:00 Обед: 14:00-15:00 Выходные: вс,пн","Address7Id":"80","Address7Name":"МОГИЛЕВСКАЯ ОБЛАСТЬ","isNew":"0","Note":""},{"WarehouseId":"60330020","WarehouseName":"Отделение №90 г.Бобруйск, ул.Сикорского 11 (м-н «Евроопт»)","Longitude":"29.2216","Latitude":"53.1992","Address1Id":"887069","Info1":"Режим работы: 9:00-21:00, обед 14:00-15:00, без выходных.","Address7Id":"80","Address7Name":"МОГИЛЕВСКАЯ ОБЛАСТЬ","isNew":"0","Note":""},{"WarehouseId":"61030010","WarehouseName":"Отделение №94 г. Кличев, ул. Зайца, 4а ( м-н «Евроопт»)","Longitude":"29.3425","Latitude":"53.4805","Address1Id":"2845952","Info1":"Режим работы: 10:00-19:00 Обед: 14:00-15:00 Выходные: вс,пн","Address7Id":"80","Address7Name":"МОГИЛЕВСКАЯ ОБЛАСТЬ","isNew":"0","Note":""},{"WarehouseId":"61830010","WarehouseName":"Отделение № 140, г. Хотимск, ул. Ленинская, 1","Longitude":"32.5796","Latitude":"53.4089","Address1Id":"2142475","Info1":"Режим работы: 10:00-19:00 Обед: 14:00-15:00 Выходные: вс,пн","Address7Id":"80","Address7Name":"МОГИЛЕВСКАЯ ОБЛАСТЬ","isNew":"0","Note":""},{"WarehouseId":"60330040","WarehouseName":"Отделение №144, г. Бобруйск, ул. Советская, 52","Longitude":"29.2256","Latitude":"53.1347","Address1Id":"2656366","Info1":"График работы:  с 9:00 до 21:00 обед с 14:00 до 15:00 ежедневно","Address7Id":"80","Address7Name":"МОГИЛЕВСКАЯ ОБЛАСТЬ","isNew":"1","Note":""},{"WarehouseId":"60530010","WarehouseName":"Отделение №147, г.п. Глуск, ул. Гагарина, 25","Longitude":"28.6768","Latitude":"52.889","Address1Id":"2724167","Info1":"График работы: с 10:00 до 19:00 обед с 14:00 до 15:00 вых: вс, пн","Address7Id":"80","Address7Name":"МОГИЛЕВСКАЯ ОБЛАСТЬ","isNew":"1","Note":""}]}